City_ID,City,Lat,Lng,Max Temp,Humidity,Cloudiness,Wind Speed,Country,Date
0,novo cruzeiro,-17.4681,-41.8753,16.76,95,100,1.75,BR,1682118305
1,jamestown,42.097,-79.2353,18.62,69,0,4.12,US,1682118144
2,hamilton,39.1834,-84.5333,15.5,90,100,8.75,US,1682118028
3,constantia,44.1833,28.65,7.61,87,12,5.58,RO,1682118307
4,kingston,17.997,-76.7936,27.53,79,75,3.6,JM,1682118169
5,minas de marcona,-15.2119,-75.1103,17.62,79,28,5.5,PE,1682118308
6,faya-largeau,17.9257,19.1043,30.0,11,0,2.33,TD,1682118309
7,hawaiian paradise park,19.5933,-154.9731,27.73,81,40,6.69,US,1682118309
8,port-aux-francais,-49.35,70.2167,5.2,61,52,5.79,TF,1682118309
9,bethel,41.3712,-73.414,16.33,56,0,3.6,US,1682118310
10,hauterive,46.0901,3.4459,14.42,84,86,3.42,FR,1682118310
11,lerwick,60.1545,-1.1494,6.0,79,4,3.22,GB,1682118311
12,sai buri,6.7013,101.6168,24.84,85,100,1.53,TH,1682118311
13,kone,-21.0595,164.8658,28.55,71,11,0.92,NC,1682118311
14,adamstown,-25.066,-130.1015,24.81,81,100,9.69,PN,1682118312
15,codrington,-38.2667,141.9667,15.93,71,100,2.35,AU,1682118312
16,stanley,54.868,-1.6985,7.51,86,0,3.09,GB,1682118312
17,hermanus,-34.4187,19.2345,10.45,63,100,2.68,ZA,1682118312
18,sur,22.5667,59.5289,27.85,64,8,4.08,OM,1682118313
19,norrtalje,59.758,18.705,6.1,79,18,1.45,SE,1682118314
20,grytviken,-54.2811,-36.5092,2.2,86,100,5.03,GS,1682118314
21,atafu village,-8.5421,-172.5159,28.87,74,16,5.1,TK,1682118315
22,beneditinos,-5.45,-42.3667,26.07,77,94,1.03,BR,1682118173
23,kuta,-8.7233,115.1723,26.97,83,20,2.68,ID,1682118030
24,invercargill,-46.4,168.35,11.68,82,91,0.89,NZ,1682118315
25,sao jose da coroa grande,-8.8978,-35.1478,25.76,83,24,4.41,BR,1682118315
26,castelnaudary,43.3183,1.9545,15.94,87,93,3.13,FR,1682118316
27,qaqortoq,60.7167,-46.0333,2.99,66,97,2.38,GL,1682118316
28,sechura,-5.5569,-80.8222,26.56,76,99,4.08,PE,1682118316
29,yellowknife,62.456,-114.3525,3.29,60,75,4.12,CA,1682118316
30,anna regina,7.2644,-58.5077,25.61,86,90,3.72,GY,1682118317
31,komsomol'sk,49.0097,33.6455,7.06,90,100,3.47,UA,1682118317
32,nellore,14.4333,79.9667,27.61,87,13,4.61,IN,1682118318
33,iskateley,67.6803,53.1512,-4.81,95,100,3.44,RU,1682118318
34,lazaro cardenas,17.9583,-102.2,28.12,59,34,6.16,MX,1682118161
35,georgetown,5.4112,100.3354,27.96,93,20,1.54,MY,1682118174
36,timmins,48.4669,-81.3331,2.9,100,100,3.6,CA,1682118029
37,carutapera,-1.195,-46.02,25.49,89,10,3.23,BR,1682118319
38,utrik,11.2278,169.8474,27.06,71,100,7.09,MH,1682118319
39,petropavlovsk-kamchatsky,53.0452,158.6483,2.33,75,75,7.0,RU,1682118320
40,nemuro,43.3236,145.575,4.4,67,27,10.99,JP,1682118320
41,yershov,51.3513,48.2766,9.95,69,98,6.02,RU,1682118320
42,puerto natales,-51.7236,-72.4875,4.0,86,44,2.84,CL,1682118321
43,road town,18.4167,-64.6167,27.05,73,20,2.06,VG,1682118321
44,albany,42.6001,-73.9662,22.23,49,27,2.68,US,1682118321
45,bredasdorp,-34.5322,20.0403,12.22,63,100,0.7,ZA,1682118322
46,margaret river,-33.95,115.0667,12.89,83,8,4.2,AU,1682118322
47,waitangi,-43.9535,-176.5597,17.12,91,100,4.02,NZ,1682118323
48,bikenibeu village,1.3673,173.1241,30.98,70,40,3.6,KI,1682118323
49,blackmans bay,-43.0167,147.3167,14.83,79,98,2.28,AU,1682118324
50,papatowai,-46.5619,169.4708,13.7,77,89,3.86,NZ,1682118324
51,beledweyne,4.7358,45.2036,29.09,60,89,7.73,SO,1682118325
52,tavda,58.0425,65.2726,5.31,89,100,0.98,RU,1682118325
53,alice springs,-23.7,133.8833,11.75,87,6,0.0,AU,1682118325
54,yanam,16.7333,82.2167,24.59,94,3,0.6,IN,1682118326
55,adrar,20.5022,-10.0711,26.35,19,98,3.69,MR,1682118326
56,talnakh,69.4865,88.3972,-5.44,84,96,4.29,RU,1682118326
57,campbell river,50.0163,-125.2446,9.69,76,100,5.14,CA,1682118029
58,vorgashor,67.5833,63.95,-6.81,97,98,2.77,RU,1682118326
59,puerto baquerizo moreno,-0.9,-89.6,28.55,79,40,4.12,EC,1682118327
60,swakopmund,-22.6833,14.5333,15.55,88,100,0.89,NA,1682118327
61,hithadhoo,-0.6,73.0833,28.7,76,81,3.89,MV,1682118189
62,muisne,0.6,-80.0333,26.52,78,83,1.87,EC,1682118327
63,puerto ayora,-0.7393,-90.3518,26.42,95,51,1.79,EC,1682118328
64,luena,-11.7833,19.9167,18.1,94,20,1.03,AO,1682118328
65,edinburgh of the seven seas,-37.0676,-12.3116,18.69,87,91,15.87,SH,1682118328
66,robore,-18.3333,-59.75,20.23,72,1,1.49,BO,1682118200
67,khanty-mansiysk,61.0042,69.0019,2.84,87,0,3.0,RU,1682118329
68,machico,32.7,-16.7667,17.78,82,75,2.06,PT,1682118329
69,ballina,-28.8667,153.5667,19.88,72,100,7.04,AU,1682118330
70,den burg,53.0542,4.7972,10.99,93,75,5.14,NL,1682118330
71,graaff-reinet,-32.2522,24.5308,10.51,56,96,0.7,ZA,1682118330
72,nay pyi taw,19.745,96.1297,26.04,72,1,1.4,MM,1682118032
73,tofol,5.3248,163.0078,30.88,70,75,5.14,FM,1682118330
74,west island,-12.1568,96.8225,26.99,78,40,7.2,CC,1682118331
75,vorkuta,67.5,64.0,-6.23,97,98,2.81,RU,1682118331
76,port alfred,-33.5906,26.891,16.43,68,100,2.42,ZA,1682118108
77,pokhara,28.2333,83.9833,18.38,28,25,3.5,NP,1682118332
78,chernyshevsk,52.5243,117.0174,-3.88,48,2,1.42,RU,1682118332
79,ribeira brava,32.65,-17.0667,17.78,74,65,1.84,PT,1682118333
80,abalak,58.1286,68.5944,3.36,84,83,2.47,RU,1682118333
81,kasempa,-13.4584,25.8338,19.37,76,100,1.56,ZM,1682118333
82,errachidia,31.9275,-4.4285,20.03,37,20,8.75,MA,1682118334
83,ilulissat,69.2167,-51.1,-0.99,80,75,0.0,GL,1682118321
84,seaside,36.6111,-121.8516,24.84,63,0,3.6,US,1682118334
85,galle,6.0367,80.217,27.57,81,44,2.61,LK,1682118335
86,port elizabeth,-33.918,25.5701,15.16,83,75,2.06,ZA,1682118335
87,vila do maio,15.1333,-23.2167,22.44,75,48,5.79,CV,1682118335
88,kalmunai,7.4167,81.8167,25.65,83,52,1.75,LK,1682118336
89,siklos,45.855,18.2975,11.58,66,0,2.06,HU,1682118336
90,labrador city,52.9463,-66.9114,3.95,70,75,3.09,CA,1682118337
91,princeton,25.5384,-80.4089,26.68,73,40,2.57,US,1682118185
92,lyubim,58.3625,40.6843,3.3,92,36,1.72,RU,1682118337
93,nieves,15.3274,120.9485,28.73,79,78,0.91,PH,1682118338
94,sidi akkacha,36.4647,1.3026,16.16,71,33,1.38,DZ,1682118338
95,sinabang,2.4803,96.3801,26.62,83,5,0.84,ID,1682118338
96,st. john's,47.5649,-52.7093,2.6,96,100,10.29,CA,1682118152
97,longyearbyen,78.2186,15.6401,-14.09,61,20,5.66,SJ,1682118338
98,port lincoln,-34.7333,135.8667,17.08,77,0,2.61,AU,1682118339
99,swanage,50.6092,-1.9626,6.98,87,3,1.79,GB,1682118339
100,namibe,-15.1961,12.1522,25.86,75,100,2.06,AO,1682118339
101,pekan,3.4836,103.3996,25.06,89,95,0.77,MY,1682118339
102,zambezi,-13.5432,23.1047,19.54,77,97,1.62,ZM,1682118339
103,san jose,37.3394,-121.895,28.51,39,75,6.17,US,1682118339
104,mccomb,31.2438,-90.4531,23.93,60,75,3.09,US,1682118340
105,mumford,5.2618,-0.759,27.7,85,100,5.14,GH,1682118340
106,tura,25.5198,90.2201,20.78,80,97,2.17,IN,1682118340
107,richards bay,-28.783,32.0377,19.17,79,97,1.64,ZA,1682118340
108,thompson,55.7435,-97.8558,3.09,41,20,5.14,CA,1682118340
109,trail,49.0998,-117.7022,13.16,57,89,1.36,CA,1682118340
110,al minya,28.1099,30.7503,19.69,39,76,4.15,EG,1682118341
111,igarka,67.4667,86.5833,-4.94,86,100,7.19,RU,1682118341
112,taksimo,56.3444,114.8794,-7.52,56,17,1.23,RU,1682118341
113,naze,28.3667,129.4833,19.51,86,84,9.12,JP,1682118341
114,haiku-pauwela,20.9219,-156.3051,27.01,74,40,5.14,US,1682118341
115,inhambane,-23.865,35.3833,21.52,85,94,2.25,MZ,1682118342
116,punta arenas,-53.15,-70.9167,6.01,75,0,3.09,CL,1682118342
117,quellon,-43.1167,-73.6167,10.14,93,100,0.0,CL,1682118342
118,aasiaat,68.7098,-52.8699,-4.73,85,100,1.98,GL,1682118342
119,linhares,-19.3911,-40.0722,21.69,73,94,2.82,BR,1682118342
120,vilyuchinsk,52.9306,158.4028,3.15,99,100,13.42,RU,1682118342
121,boyolangu,-8.1181,111.8935,24.22,94,85,0.47,ID,1682118342
122,lata,40.1629,-8.3327,14.34,98,86,0.52,PT,1682118343
123,maymana,35.9214,64.7836,14.68,27,0,2.36,AF,1682118277
124,whitehorse,60.7161,-135.0538,7.43,33,75,1.54,CA,1682118343
125,ust'-ilimsk,58.0006,102.6619,-4.91,91,100,2.38,RU,1682118343
126,lompoc,34.6391,-120.4579,31.08,68,0,10.8,US,1682118343
127,port saint john's,-31.6229,29.5448,16.2,69,58,2.27,ZA,1682118343
128,port mathurin,-19.6833,63.4167,26.28,76,24,7.68,MU,1682118069
129,mogadishu,2.0371,45.3438,28.86,71,100,6.5,SO,1682118126
130,revda,56.801,59.9303,4.29,92,100,1.9,RU,1682118344
131,bilibino,68.0546,166.4372,-0.99,61,9,0.86,RU,1682118344
132,nizhnesortymskiy,62.4397,71.7603,0.28,99,100,2.69,RU,1682118344
133,funafuti,-8.5243,179.1942,31.0,79,20,0.0,TV,1682118344
134,bagan,54.1001,77.6646,-0.9,62,5,3.34,RU,1682118344
135,taltal,-25.4,-70.4833,18.21,83,98,1.99,CL,1682118021
136,xilin hot,43.9667,116.0333,-0.82,21,42,4.82,CN,1682118344
137,east london,-33.0153,27.9116,16.23,75,88,1.76,ZA,1682118344
138,darwin,-12.4611,130.8418,25.53,83,0,3.6,AU,1682118345
139,gundlupet,11.8,76.6833,21.75,76,42,1.5,IN,1682118345
140,lebowakgomo,-24.2,29.5,14.5,49,93,3.23,ZA,1682118345
141,kamyanyets,52.4001,23.81,10.97,61,100,1.98,BY,1682118345
142,luderitz,-26.6481,15.1594,13.7,74,33,3.99,NA,1682118345
143,bereznik,62.8551,42.7072,1.15,100,100,0.69,RU,1682118345
144,ribeira grande,38.5167,-28.7,17.1,93,41,6.71,PT,1682118346
145,shohimardon,39.9839,71.8028,5.43,34,0,4.1,UZ,1682118347
146,magadan,59.5667,150.8,4.74,71,45,10.12,RU,1682118347
147,sinop,41.7711,34.8709,6.62,92,95,1.5,TR,1682118347
148,ta`u,-14.2336,-169.5144,27.14,78,95,2.69,AS,1682118347
149,ust-nera,64.5667,143.2,-3.55,91,92,2.19,RU,1682118347
150,colonia,50.9333,6.95,10.54,90,56,1.03,DE,1682118127
151,badger,64.8,-147.5333,5.84,56,100,0.0,US,1682118348
152,morondava,-20.2833,44.2833,23.83,85,24,2.88,MG,1682118348
153,college,64.8569,-147.8028,5.88,56,100,0.0,US,1682118348
154,queenstown,-31.8976,26.8753,7.3,83,81,1.02,ZA,1682118348
155,buba,11.5833,-15.0,26.7,59,100,2.32,GW,1682118348
156,mbandaka,0.0487,18.2603,21.34,97,99,1.53,CD,1682118348
157,tiksi,71.6872,128.8694,-16.99,93,86,1.16,RU,1682118349
158,shirvan,39.9509,48.8994,14.88,90,100,2.13,AZ,1682118349
159,iqaluit,63.7506,-68.5145,-1.15,92,100,3.6,CA,1682118349
160,mamit,23.9333,92.4833,17.06,90,100,1.67,IN,1682118349
161,lebu,-37.6167,-73.65,12.61,91,45,3.99,CL,1682118349
162,kapa'a,22.0752,-159.319,27.49,82,20,4.12,US,1682118349
163,meltham mills,53.5939,-1.8399,8.39,94,100,3.02,GB,1682118349
164,loango,-4.6719,11.8312,25.65,86,100,1.31,CG,1682118350
165,fortuna,40.5982,-124.1573,15.19,77,100,3.48,US,1682118350
166,ushuaia,-54.8,-68.3,4.81,70,40,8.75,AR,1682118279
167,celestun,20.8667,-90.4,28.44,71,34,5.86,MX,1682118350
168,east ballina,-28.8667,153.5833,19.89,72,100,7.42,AU,1682118350
169,dalandzadgad,43.5708,104.425,3.1,17,24,2.09,MN,1682118350
170,yumaguzino,52.9041,56.3933,10.8,50,100,3.43,RU,1682118350
171,nuuk,64.1835,-51.7216,0.34,86,75,4.12,GL,1682118350
172,karatas,36.582,35.3701,15.36,82,4,2.4,TR,1682118351
173,watsa,3.0372,29.5355,17.5,98,95,1.33,CD,1682118351
174,lahat,-3.8,103.5333,22.73,98,100,0.92,ID,1682118351
175,anadyr,64.75,177.4833,-7.72,86,0,2.0,RU,1682118351
176,tazovsky,67.4667,78.7,-1.14,98,100,4.56,RU,1682118351
177,ebon,4.582,168.6964,28.38,76,75,5.09,MH,1682118351
178,hasaki,35.7333,140.8333,14.05,60,100,11.0,JP,1682118351
179,lensk,60.7253,114.9278,-3.74,70,22,1.32,RU,1682118351
180,cabo san lucas,22.8909,-109.9124,30.66,35,100,4.41,MX,1682118010
181,promyshlennaya,54.9159,85.6385,0.53,82,30,1.81,RU,1682118352
182,kudahuvadhoo,2.6708,72.8944,28.24,75,21,2.64,MV,1682118352
183,kayangel,8.0823,134.7173,28.55,74,100,6.6,PW,1682118352
184,la reforma,25.0833,-108.05,25.78,52,93,6.68,MX,1682118352
185,tolanaro,-25.0319,46.9987,21.04,94,20,0.0,MG,1682118352
186,klyuchi,52.2667,79.1667,-1.96,71,9,2.32,RU,1682118352
187,afaahiti,-17.75,-149.2833,29.93,82,85,8.03,PF,1682118352
188,wailua homesteads,22.0669,-159.378,26.74,82,20,4.12,US,1682118352
189,brigantine,39.4101,-74.3646,17.89,85,0,3.6,US,1682118353
190,chichiriviche,10.9333,-68.2772,25.93,85,71,3.82,VE,1682118353
191,kota kinabalu,5.9749,116.0724,25.99,89,20,2.68,MY,1682118353
192,gadzhiyevo,69.2551,33.3362,-2.3,96,100,4.66,RU,1682118353
193,tulun,54.5611,100.5792,-3.08,69,91,2.11,RU,1682118353
194,pontevedra,42.431,-8.6444,11.75,96,36,2.01,ES,1682118155
195,suva,-18.1416,178.4415,29.71,74,40,5.14,FJ,1682118353
196,teotitlan,18.1319,-97.0767,32.55,33,32,4.26,MX,1682118353
197,yuzhno-kurilsk,44.0306,145.8556,1.96,86,92,12.29,RU,1682118354
198,nizhniy kuranakh,58.8353,125.4869,-4.85,85,93,1.88,RU,1682118354
199,khoyniki,51.8911,29.9552,7.09,70,28,3.03,BY,1682118354
200,kauhajoki,62.4333,22.1833,3.99,84,30,1.34,FI,1682118354
201,zouerate,22.7187,-12.4521,24.88,20,77,4.62,MR,1682118354
202,bulgan,48.8125,103.5347,-4.45,44,50,0.81,MN,1682118355
203,seven pagodas,12.6264,80.1722,30.03,82,5,4.49,IN,1682118355
204,crane,31.3974,-102.3501,25.42,7,0,5.38,US,1682118355
205,lushun,38.8,121.2667,11.12,57,100,5.85,CN,1682118355
206,petauke,-14.2426,31.3253,18.14,86,67,1.32,ZM,1682118355
207,reyes,-14.3167,-67.3833,22.28,82,64,1.01,BO,1682118355
208,la passe,45.5549,-0.8967,14.45,93,100,3.18,FR,1682118355
209,vredendal,-31.6683,18.5012,14.29,56,91,1.13,ZA,1682118356
210,balabac,7.9868,117.0645,28.44,74,44,4.06,PH,1682118356
211,kantagi,43.5264,68.5775,6.99,28,29,6.74,KZ,1682118356
212,taroa,8.7058,171.2275,27.4,79,97,7.35,MH,1682118356
213,manavalakurichi,8.1333,77.3,27.14,86,36,4.06,IN,1682118356
214,longboat key,27.4125,-82.659,28.39,58,0,4.12,US,1682118356
215,el hamma,33.8915,9.7963,16.62,80,57,8.74,TN,1682118357
216,sierra grande,-41.606,-65.3557,15.5,37,55,7.6,AR,1682118357
217,touros,-5.1989,-35.4608,26.48,75,98,5.25,BR,1682118357
218,vilyuysk,63.7553,121.6247,-4.94,93,100,1.78,RU,1682118357
219,oyama,36.3,139.8,15.88,36,93,2.44,JP,1682118357
220,ha'il,27.5219,41.6907,20.01,64,20,4.12,SA,1682118357
221,lubang,13.8584,120.124,28.24,78,81,3.76,PH,1682118358
222,thinadhoo,0.5333,72.9333,28.86,74,10,3.32,MV,1682118358
223,magdagachi,53.45,125.8,0.12,46,100,4.27,RU,1682118358
224,jose pedro varela,-33.45,-54.5333,15.08,73,77,3.92,UY,1682118358
225,new norfolk,-42.7826,147.0587,15.49,73,100,1.79,AU,1682118358
226,sidi ifni,29.3797,-10.173,16.9,75,0,4.34,MA,1682118359
227,san patricio,28.017,-97.5169,27.26,58,34,6.63,US,1682118359
228,flying fish cove,-10.4217,105.6791,27.55,75,100,7.27,CX,1682118359
229,kalifornsky,60.4183,-151.29,12.19,28,0,5.14,US,1682118359
230,lobujya,27.95,86.8167,-12.76,95,98,0.48,NP,1682118359
231,avarua,-21.2078,-159.775,27.03,69,20,5.14,CK,1682118359
232,nova vicosa,-17.8919,-39.3719,24.48,80,100,7.68,BR,1682118148
233,mandaguacu,-23.3472,-52.0953,19.78,56,0,3.09,BR,1682118127
234,san pedro del parana,-26.8333,-56.2,17.51,59,0,3.28,PY,1682118359
235,remire-montjoly,4.9167,-52.2667,24.02,100,75,0.51,GF,1682118360
236,rurrenabaque,-14.4413,-67.5278,22.38,81,56,0.71,BO,1682118200
237,qarauyl,48.9451,79.255,-1.39,70,9,2.92,KZ,1682118360
238,waunakee,43.1919,-89.4557,8.76,55,100,6.17,US,1682118360
239,santana,-0.0583,-51.1817,28.1,89,20,2.06,BR,1682118360
240,hammerfest,70.6634,23.6821,-2.75,59,75,6.17,NO,1682118360
241,olonkinbyen,70.9221,-8.7187,-4.23,59,33,4.46,SJ,1682118361
242,bonthe,7.5264,-12.505,27.1,78,100,3.86,SL,1682118361
243,miura,35.14,139.6192,15.0,63,100,7.02,JP,1682118361
244,lihue,21.9789,-159.3672,27.08,78,20,4.12,US,1682118361
245,sitka,57.0531,-135.33,12.94,38,75,4.63,US,1682118361
246,kodiak,57.79,-152.4072,6.14,66,0,2.87,US,1682118135
247,paita,-5.0892,-81.1144,26.16,81,100,4.06,PE,1682118361
248,nova sintra,14.8667,-24.7167,19.81,76,14,6.28,CV,1682118362
249,moscow,55.7522,37.6156,9.24,66,22,3.11,RU,1682118112
250,taro,-8.3862,115.28,23.0,95,93,0.69,ID,1682118363
251,pudozh,61.8099,36.5345,1.7,98,88,0.25,RU,1682118363
252,vila franca do campo,37.7167,-25.4333,16.23,89,75,6.12,PT,1682118363
253,mount pearl,47.5166,-52.7813,1.85,96,100,10.29,CA,1682118364
254,coruripe,-10.1256,-36.1756,25.91,81,4,4.44,BR,1682118364
255,pathein,16.7833,94.7333,27.97,68,63,2.5,MM,1682118364
256,arendal,58.4615,8.7725,2.89,55,11,1.27,NO,1682118364
257,christchurch,-43.5333,172.6333,16.29,93,100,2.57,NZ,1682118254
258,ormara,25.2088,64.6357,25.85,83,0,5.92,PK,1682118365
259,alaghsas,17.0187,8.0168,30.82,12,0,3.76,NE,1682118365
260,vadakku viravanallur,8.7,77.5333,27.54,78,50,2.56,IN,1682118365
261,goundi,9.3627,17.366,30.97,40,92,2.62,TD,1682118365
262,udachny,66.4167,112.4,-10.15,95,100,1.98,RU,1682118366
263,rizokarpaso,35.6,34.375,16.3,76,6,2.65,CY,1682118366
264,sydney mines,46.2367,-60.2177,6.01,82,20,6.71,CA,1682118366
265,khandyga,62.6667,135.6,-1.6,87,100,0.62,RU,1682118367
266,dudinka,69.4058,86.1778,-5.21,84,99,7.01,RU,1682118367
267,mongo,12.1844,18.693,32.23,22,38,2.7,TD,1682118367
268,yokadouma,3.5167,15.05,20.95,99,100,0.86,CM,1682118368
269,pala,9.3642,14.9046,30.77,35,100,1.91,TD,1682118368
270,vernon,50.2581,-119.2691,13.5,46,97,1.34,CA,1682118368
271,zaozersk,69.4005,32.4476,-3.23,96,100,3.13,RU,1682118270
272,padang,-0.9492,100.3543,23.03,88,99,1.72,ID,1682118370
273,broken hill,-31.95,141.4333,15.79,60,0,5.17,AU,1682118233
274,childress,34.4264,-100.204,21.62,11,70,2.37,US,1682118137
275,anloga,5.7947,0.8973,28.29,80,99,4.78,GH,1682118371
276,luganville,-15.5333,167.1667,29.03,74,59,4.15,VU,1682118371
277,labytnangi,66.6572,66.4183,-12.35,93,56,1.2,RU,1682118371
278,island harbour,50.724,-1.2758,5.52,91,3,0.45,GB,1682118372
279,poli,-3.3333,36.8,16.43,95,100,1.69,TZ,1682118372
280,griffith,41.5284,-87.4237,17.19,45,75,6.17,US,1682118372
281,dalby,-27.1833,151.2667,19.43,58,0,6.72,AU,1682118373
282,lagoa,39.05,-27.9833,15.69,91,50,11.3,PT,1682118193
283,bolobo,-2.1667,16.2333,21.58,94,100,0.92,CD,1682118374
284,arteche,12.2645,125.4048,27.73,78,82,1.27,PH,1682118374
285,egilsstadir,65.2653,-14.3948,-1.05,86,100,6.69,IS,1682118374
286,yorosso,12.3536,-4.7761,32.9,14,64,2.41,ML,1682118375
287,cidreira,-30.1811,-50.2056,20.65,70,42,6.67,BR,1682118249
288,ketchikan,55.3422,-131.6461,12.26,40,40,6.69,US,1682118375
289,flin flon,54.7682,-101.865,6.91,24,20,5.66,CA,1682118375
290,kendari,-3.945,122.4989,24.1,95,86,1.21,ID,1682118375
291,usinsk,65.9939,57.5281,-3.16,97,93,4.55,RU,1682118376
292,kiruna,67.8557,20.2251,-2.49,100,100,3.6,SE,1682118376
293,guantanamo,20.1444,-75.2092,27.76,80,63,1.25,CU,1682118377
294,khao yoi,13.2403,99.8243,26.39,72,0,1.29,TH,1682118377
295,isafjordur,66.0755,-23.124,-0.81,72,34,3.02,IS,1682118377
296,hailar,49.2,119.7,-1.37,28,0,5.06,CN,1682118377
297,grand gaube,-20.0064,57.6608,26.22,76,6,1.79,MU,1682118378
298,tyukalinsk,55.8732,72.1967,2.53,66,81,3.79,RU,1682118378
299,uturoa,-16.7333,-151.4333,28.13,79,81,7.75,PF,1682118378
300,la'ie,21.6477,-157.9253,29.66,86,5,3.73,US,1682118379
301,ad dabbah,18.05,30.95,28.56,15,0,4.57,SD,1682118379
302,kailua-kona,19.6406,-155.9956,28.98,84,40,4.63,US,1682118277
303,halabjah,35.1778,45.9861,15.45,74,49,0.51,IQ,1682118379
304,chelm,51.1431,23.4716,9.31,69,94,2.05,PL,1682118379
305,iwanai,42.9744,140.5089,5.53,68,93,6.25,JP,1682118380
306,buka,40.8108,69.1986,12.88,36,8,1.11,UZ,1682118380
307,upper grand lagoon,30.1633,-85.7408,23.35,85,75,7.2,US,1682118380
308,castlegar,49.2998,-117.6689,11.66,62,93,1.47,CA,1682118380
309,krasnozerskoye,53.9828,79.2374,-0.84,57,6,2.59,RU,1682118381
310,bodo,67.28,14.405,6.02,94,100,11.83,NO,1682118381
311,cole harbour,44.6724,-63.4751,7.66,71,65,2.24,CA,1682118381
312,swift current,50.2834,-107.8014,-1.55,80,100,3.09,CA,1682118348
313,caleta de carquin,-11.0925,-77.6267,24.32,79,49,4.94,PE,1682118382
314,uberlandia,-18.9186,-48.2772,23.56,60,0,1.54,BR,1682118382
315,wamba,8.9333,8.6,25.05,68,100,0.34,NG,1682118382
316,haeju,38.0406,125.7147,13.29,24,92,3.4,KP,1682118383
317,nyurba,63.2842,118.3319,-7.68,91,100,2.56,RU,1682118383
318,burang,30.25,81.1667,-12.43,96,81,1.46,CN,1682118383
319,omerli,37.4022,40.9541,10.09,53,0,0.91,TR,1682118383
320,emerald,-23.5333,148.1667,21.3,59,0,8.25,AU,1682118290
321,camacupa,-12.0167,17.4833,16.59,95,100,2.06,AO,1682118384
322,zharkent,44.1628,80.0,6.98,37,99,1.36,KZ,1682118384
323,paracuru,-3.41,-39.0306,28.39,83,75,3.95,BR,1682118384
324,dombarovskiy,50.7587,59.5386,10.28,48,100,7.6,RU,1682118384
325,mukalla,14.5425,49.1242,27.22,71,95,2.57,YE,1682118385
326,saldanha,-33.0117,17.9442,12.03,61,100,1.92,ZA,1682118386
327,saint-pierre,-21.3393,55.4781,24.82,69,0,3.09,RE,1682118386
328,mo i rana,66.3128,14.1428,4.62,93,100,2.68,NO,1682118386
329,aksuat,48.7167,83.7,1.67,54,43,1.38,KZ,1682118386
330,yigo village,13.5361,144.8886,28.19,81,75,6.17,GU,1682118386
331,granada,37.25,-3.25,13.59,70,78,1.78,ES,1682118207
332,sihanoukville,10.6093,103.5296,25.97,94,20,2.06,KH,1682118387
333,reggane,26.7158,0.1714,28.07,15,15,4.56,DZ,1682118387
334,robbah,33.2797,6.9098,19.72,54,1,8.36,DZ,1682118388
335,brookings,44.3114,-96.7984,1.19,83,100,8.75,US,1682118207
336,smithers,54.7804,-127.1743,9.18,43,75,1.54,CA,1682118184
337,berezniki,59.4152,56.8124,3.37,87,100,1.1,RU,1682118389
338,susuman,62.7833,148.1667,-5.97,88,90,1.92,RU,1682118389
339,newman,37.3138,-121.0208,26.99,42,39,4.47,US,1682118389
340,natal,-5.795,-35.2094,27.12,69,20,4.63,BR,1682118272
341,turkmenbasy,40.0222,52.9552,14.43,72,100,2.06,TM,1682118390
342,lasem,-6.6922,111.4527,24.96,92,66,2.63,ID,1682118390
343,port-vila,-17.7338,168.3219,29.78,70,40,4.12,VU,1682118391
344,dapa,9.7594,126.0531,27.6,78,95,1.63,PH,1682118391
345,macapa,0.0389,-51.0664,27.99,89,20,2.06,BR,1682118311
346,gemena,3.25,19.7667,21.44,98,98,1.61,CD,1682118393
347,holualoa,19.6228,-155.9522,26.91,83,40,4.63,US,1682118390
348,nagqu,31.5,92.0,-3.55,83,100,1.22,CN,1682118393
349,sakhipur,24.3,90.1833,23.48,79,97,2.86,BD,1682118394
350,tabas,33.5959,56.9244,23.12,17,18,1.03,IR,1682118142
351,shulan,44.4167,126.95,4.16,24,10,1.97,CN,1682118394
352,novovarshavka,54.1721,74.6946,0.08,70,15,4.17,RU,1682118395
353,sotik post,-0.7813,35.3416,13.96,96,100,1.21,KE,1682118395
354,radomsko,51.0671,19.4448,8.9,66,44,2.18,PL,1682118395
355,chonchi,-42.6128,-73.8092,11.73,94,77,0.87,CL,1682118395
356,llanes,43.4198,-4.7549,12.85,94,100,2.08,ES,1682118396
357,castillos,-34.1667,-53.8333,16.34,82,78,4.55,UY,1682118396
358,sao jose dos pinhais,-25.5347,-49.2064,15.19,67,40,3.09,BR,1682118396
359,mariehamn,60.0973,19.9348,7.12,93,0,0.51,AX,1682118396
360,tapes,-30.6733,-51.3958,19.08,78,56,5.57,BR,1682118397
361,ras al khaimah city,25.7895,55.9432,17.12,63,0,2.06,AE,1682118397
362,chhor,25.5167,69.7667,25.42,47,0,4.22,PK,1682118397
363,namsos,64.4662,11.4957,7.03,100,13,0.51,NO,1682118398
364,tarawa,1.419,172.984,31.05,70,40,3.6,KI,1682118398
365,basco,20.4487,121.9702,25.73,78,52,5.24,PH,1682118398
366,zhangatas,43.5667,69.75,4.72,34,44,6.09,KZ,1682118399
367,xiva,41.3783,60.3639,10.99,18,42,5.68,UZ,1682118399
368,sarangani,5.4033,125.4636,28.45,73,62,5.1,PH,1682118399
369,sandnessjoen,66.0217,12.6316,6.29,95,100,0.89,NO,1682118195
370,humahuaca,-23.2054,-65.3505,17.37,25,1,0.92,AR,1682118399
371,talavera de la reina,39.9635,-4.8308,12.86,84,100,4.05,ES,1682118400
372,patong,7.8961,98.2966,27.08,82,83,3.99,TH,1682118400
373,borgarnes,64.5383,-21.9206,6.03,76,27,4.66,IS,1682118400
374,jijiga,9.35,42.8,19.45,73,88,2.1,ET,1682118400
375,akureyri,65.6835,-18.0878,0.96,69,75,4.63,IS,1682118400
376,ribeirao das neves,-19.7669,-44.0867,19.88,67,40,6.69,BR,1682118400
377,soio,-6.1349,12.3689,25.44,86,93,2.72,AO,1682118266
378,cockburn town,21.4612,-71.1419,25.62,69,62,4.91,TC,1682118401
379,ordynskoye,54.3656,81.8994,-0.18,61,15,2.21,RU,1682118401
380,huaidian,33.4333,115.0333,10.86,34,100,6.09,CN,1682118401
381,san luis de la loma,17.2706,-100.8939,28.84,59,15,4.82,MX,1682118401
382,arraial do cabo,-22.9661,-42.0278,22.57,70,1,1.52,BR,1682118401
383,sao gabriel da cachoeira,-0.1303,-67.0892,23.22,99,100,1.64,BR,1682118402
384,nabire,-3.3667,135.4833,26.07,85,100,1.01,ID,1682118402
385,red oak,32.5176,-96.8044,24.53,28,0,2.57,US,1682118200
386,darovskoy,58.77,47.9564,2.52,90,7,2.12,RU,1682118402
387,tuni,17.35,82.55,25.61,81,21,0.54,IN,1682118402
388,jayapura,-2.5333,140.7,23.66,85,99,0.39,ID,1682118402
389,cheremukhovo,60.3484,59.9851,1.8,84,100,0.62,RU,1682118402
390,laguna,38.421,-121.4238,28.41,30,0,7.2,US,1682118402
391,russkaya polyana,49.417,31.9201,6.93,90,100,2.58,UA,1682118403
392,keflavik,64.0049,-22.5624,4.24,81,75,6.69,IS,1682118403
393,belmonte,-15.8631,-38.8828,24.25,90,95,2.91,BR,1682118403
394,tamanrasset,22.785,5.5228,19.95,13,82,3.09,DZ,1682118403
395,korla,41.7597,86.1469,11.57,32,100,2.15,CN,1682118403
396,hanzhong,33.0728,107.0303,9.5,95,100,2.24,CN,1682118403
397,gizo,-8.103,156.8419,28.59,74,55,2.96,SB,1682118404
398,polonnaruwa,7.9333,81.0,23.83,92,50,1.16,LK,1682118141
399,bay roberts,47.5999,-53.2648,2.51,91,98,3.58,CA,1682118404
400,aqsay,51.1678,52.995,10.43,76,100,8.13,KZ,1682118404
401,comodoro rivadavia,-45.8667,-67.5,9.92,53,0,2.57,AR,1682118106
402,greymouth,-42.4667,171.2,16.51,89,35,2.49,NZ,1682118404
403,upington,-28.4478,21.2561,12.9,24,24,2.47,ZA,1682118404
404,paulinia,-22.7611,-47.1542,18.52,72,0,4.93,BR,1682118405
405,bakchar,57.0186,82.0711,-2.33,77,15,2.27,RU,1682118405
406,gereshk,31.8209,64.5701,19.58,10,0,1.62,AF,1682118266
407,nar'yan-mar,67.6713,53.087,-4.83,95,100,3.46,RU,1682118405
408,dalianwan,39.0286,121.695,11.02,43,0,4.0,CN,1682118405
409,dunedin,-45.8742,170.5036,16.15,55,69,1.28,NZ,1682118406
410,tanjung pandan,-2.75,107.65,25.17,91,73,2.01,ID,1682118406
411,ancud,-41.8697,-73.8203,11.07,85,5,1.75,CL,1682118406
412,suntar,62.1444,117.6319,-6.26,85,98,1.33,RU,1682118406
413,campobello di mazara,37.6358,12.7443,14.36,85,4,3.42,IT,1682118406
414,akrehamn,59.2667,5.1833,8.56,87,7,3.09,NO,1682118406
415,floro,61.5996,5.0328,8.04,93,4,2.57,NO,1682118406
416,cajabamba,-7.6167,-78.05,13.01,85,100,0.97,PE,1682118406
417,birjand,32.8663,59.2211,17.06,19,2,3.5,IR,1682118407
418,urangan,-25.3,152.9,22.79,75,94,9.62,AU,1682118215
419,saipan,15.1355,145.701,28.39,100,100,6.17,MP,1682118407
420,sao vicente,-23.9631,-46.3919,23.32,26,7,0.45,BR,1682118407
421,kidal,18.4411,1.4078,29.59,12,12,5.06,ML,1682118407
422,shizuishan,39.2333,106.7694,5.71,72,87,2.63,CN,1682118407
423,harstad,68.799,16.5293,-0.34,98,100,8.49,NO,1682118407
424,praia da vitoria,38.7333,-27.0667,16.25,88,56,8.31,PT,1682118408
425,keyser,39.4409,-78.9739,26.86,58,99,1.91,US,1682118408
426,svetlyy,54.675,20.1347,3.03,68,68,2.01,RU,1682118408
427,mussoorie,30.45,78.0833,8.97,55,47,3.51,IN,1682118408
428,zaragoza,41.6561,-0.8773,18.9,55,0,3.6,ES,1682118201
429,alofi,-19.0595,-169.9187,25.74,64,4,6.12,NU,1682118408
430,acajutla,13.5928,-89.8275,29.27,70,66,5.03,SV,1682118408
431,torghay,49.6339,63.4981,9.33,50,96,3.96,KZ,1682118409
432,tuburan,6.6439,122.2736,27.88,74,97,1.26,PH,1682118409
433,mawu,29.5923,107.3139,19.49,90,100,1.64,CN,1682118409
434,howard springs,-12.497,131.047,25.49,83,5,3.87,AU,1682118409
435,nuku'alofa,-21.1333,-175.2,27.19,74,40,4.12,TO,1682118409
436,fale old settlement,-9.3852,-171.2468,28.98,74,14,5.74,TK,1682118409
437,hoemul-li,41.4339,129.67,7.92,33,100,1.19,KP,1682118410
438,aizawl,23.7333,92.7167,14.9,92,100,1.38,IN,1682118410
439,palu,-0.8917,119.8707,25.77,91,72,1.07,ID,1682118410
440,keetmanshoop,-26.5833,18.1333,18.37,33,16,3.02,NA,1682118410
441,silver springs,29.1044,-82.0206,30.1,47,36,3.58,US,1682118411
442,prainha,-1.8,-53.48,24.86,90,95,1.59,BR,1682118411
443,malango,-2.9627,119.9001,20.77,96,89,0.46,ID,1682118411
444,long,18.0761,99.8326,25.88,67,2,0.49,TH,1682118411
445,hotan,37.0997,79.9269,9.42,55,100,1.19,CN,1682118209
446,whitby,54.4877,-0.615,8.51,91,100,5.74,GB,1682118029
447,hengchun,22.0042,120.7439,24.49,80,82,5.04,TW,1682118412
448,lorengau,-2.0226,147.2712,29.03,71,68,2.21,PG,1682118412
449,narimanov,46.6927,47.8498,8.95,77,58,4.88,RU,1682118412
450,sangkhla buri,15.1555,98.4536,21.87,98,31,0.73,TH,1682118412
451,javea,38.7833,0.1667,18.09,73,69,0.89,ES,1682118412
452,acipayam,37.4239,29.3494,9.31,71,65,1.48,TR,1682118412
453,san antonio de pale,-1.4014,5.6325,28.21,70,100,2.97,GQ,1682118413
454,ephraim,39.3597,-111.5863,11.56,44,99,8.38,US,1682118413
455,ruzomberok,49.0748,19.3075,4.44,81,66,0.7,SK,1682118413
456,palmer,42.1584,-72.3287,18.79,35,20,6.69,US,1682118399
457,aripuana,-9.1667,-60.6333,23.96,97,99,0.34,BR,1682118413
458,huarmey,-10.0681,-78.1522,25.34,78,54,3.84,PE,1682118413
459,san clemente,33.427,-117.612,33.48,48,2,2.24,US,1682118318
460,hargeysa,9.56,44.065,23.69,65,79,1.68,SO,1682118413
461,flekkefjord,58.2971,6.6607,9.41,72,3,1.79,NO,1682118414
462,aden,12.7794,45.0367,27.95,78,82,7.93,YE,1682118414
463,tippi,7.2,35.45,19.52,94,97,1.85,ET,1682118415
464,faridpur,23.6,89.8333,24.66,80,87,2.85,BD,1682118415
465,serdar,38.9764,56.2757,21.37,16,71,2.94,TM,1682118418
466,rongelap,11.1635,166.8941,27.05,76,93,8.28,MH,1682118418
467,brassall,-27.5975,152.7475,24.17,66,0,5.66,AU,1682118418
468,tutayev,57.8853,39.5406,4.26,89,36,1.81,RU,1682118418
469,el calafate,-50.3408,-72.2768,5.6,61,76,3.81,AR,1682118418
470,geraldton,-28.7667,114.6,12.23,66,100,3.6,AU,1682118368
471,beacon square,28.2086,-82.7554,28.46,72,4,1.79,US,1682118418
472,kirovsk,48.6375,38.6428,6.16,92,94,1.59,UA,1682118419
473,madang,-5.2246,145.7966,26.7,88,77,3.74,PG,1682118419
474,bochum,51.4833,7.2167,12.21,89,69,0.45,DE,1682118419
475,douentza,14.9951,-2.9517,31.7,14,83,5.18,ML,1682118419
476,papao,-17.75,-149.55,30.82,85,69,9.93,PF,1682118419
477,chibougamau,49.9168,-74.3659,2.79,60,100,6.17,CA,1682118419
478,orsova,44.7253,22.3961,9.44,89,31,1.82,RO,1682118419
479,ulladulla,-35.35,150.4667,18.18,62,16,0.86,AU,1682118419
480,hoyo de manzanares,40.6223,-3.9087,16.39,63,100,1.81,ES,1682118420
481,severo-yeniseyskiy,60.3725,93.0408,-14.53,100,88,1.56,RU,1682118420
482,acarau,-2.8856,-40.12,25.62,85,38,4.92,BR,1682118420
483,smara,26.7384,-11.6719,17.28,61,0,5.27,EH,1682118420
484,brumado,-14.2036,-41.6653,22.03,91,69,2.71,BR,1682118420
485,zhigalovo,54.8097,105.1578,-4.86,76,100,0.95,RU,1682118420
486,kuloy,61.0305,42.4925,4.17,95,100,0.88,RU,1682118420
487,saint-pol-de-leon,48.6833,-3.9833,10.37,75,99,4.26,FR,1682118421
488,paredon,16.0333,-93.8667,30.3,65,96,4.14,MX,1682118421
489,myitkyina,25.3833,97.4,21.52,63,99,0.76,MM,1682118421
490,pizarro,4.9533,-77.366,26.46,82,78,2.35,CO,1682118422
491,grand island,40.925,-98.342,9.78,38,0,8.75,US,1682118422
492,martapura,-3.4167,114.85,24.35,92,53,0.75,ID,1682118422
493,tadine,-21.55,167.8833,26.83,71,11,3.52,NC,1682118422
494,fada,9.5667,8.3,21.78,77,100,1.52,NG,1682118423
495,moanda,-1.5575,13.2178,22.69,85,100,1.24,GA,1682118423
496,aswan,24.0934,32.907,23.86,12,32,4.28,EG,1682118423
497,noosa heads,-26.3833,153.15,21.73,74,94,9.79,AU,1682118424
498,moose jaw,50.4001,-105.5344,1.15,64,100,5.14,CA,1682118386
499,damara,4.9608,18.7035,23.09,93,100,2.0,CF,1682118424
500,mogocha,53.7333,119.7667,-4.8,71,100,1.58,RU,1682118425
501,pasuquin,18.3328,120.6177,27.26,75,92,2.93,PH,1682118425
502,barcelos,41.5388,-8.6151,12.69,91,41,1.27,PT,1682118425
503,rockingham,42.9668,-71.0995,12.41,71,14,0.89,US,1682118426
504,knyaze-volkonskoye,48.4642,135.4567,5.19,66,70,3.33,RU,1682118426
505,laojunmiao,39.8333,97.7333,0.45,85,99,1.85,CN,1682118427
506,tarko-sale,64.9225,77.785,-0.26,94,100,4.01,RU,1682118427
507,dumai,1.6833,101.45,23.58,98,98,0.57,ID,1682118427
508,zaqatala,41.6336,46.6433,9.26,100,40,3.09,AZ,1682118428
509,canavieiras,-15.675,-38.9472,23.16,95,96,2.32,BR,1682118428
510,poronaysk,49.2167,143.1167,3.73,61,100,9.33,RU,1682118428
511,vadso,70.0744,29.7487,-2.51,74,75,1.03,NO,1682118429
512,tsiombe,-25.3,45.4833,20.68,89,18,1.82,MG,1682118429
513,nykobing mors,56.7933,8.8528,8.4,57,0,3.41,DK,1682118429
514,tual,-5.6667,132.75,28.4,78,88,5.62,ID,1682118430
515,trinity beach,-16.7888,145.6968,27.81,69,75,5.66,AU,1682118430
516,leava,-14.3,-178.1667,28.39,75,20,5.45,WF,1682118430
517,jinzhou,41.1078,121.1417,10.87,17,100,2.73,CN,1682118431
518,baruun-urt,46.6806,113.2792,-3.69,24,1,4.07,MN,1682118431
519,bloemfontein,-29.1211,26.214,9.76,36,49,2.17,ZA,1682118431
520,lucapa,-8.4192,20.7447,18.7,98,100,0.99,AO,1682118432
521,camocim,-2.9022,-40.8411,25.37,89,63,4.64,BR,1682118432
522,glace bay,46.1969,-59.957,4.88,86,20,5.81,CA,1682118432
523,essaouira,31.5125,-9.77,16.5,76,24,2.38,MA,1682118433
524,kulhudhuffushi,6.6221,73.07,28.54,70,4,1.61,MV,1682118433
525,phon charoen,18.0333,103.1667,25.6,58,1,1.54,TH,1682118433
526,port hueneme,34.1478,-119.1951,31.78,30,0,5.14,US,1682118168
527,cosne-cours-sur-loire,47.3333,3.1667,7.59,92,93,2.63,FR,1682118434
528,portland,45.5234,-122.6762,15.16,61,100,4.02,US,1682117903
529,heishan,41.6892,122.1128,9.94,12,76,2.82,CN,1682118434
530,luang prabang,19.8856,102.1347,22.73,75,81,0.51,LA,1682118434
531,shimanovsk,52.0,127.7,0.84,49,98,4.8,RU,1682118435
532,berdigestyakh,62.0989,126.6992,-4.5,93,94,2.31,RU,1682118435
533,lincheng,19.9078,109.6858,25.66,90,36,2.72,CN,1682118435
534,sens,48.1667,3.3333,7.42,85,73,2.42,FR,1682118168
535,macau,22.2006,113.5461,23.89,94,40,7.2,MO,1682118367
536,betio village,1.358,172.9211,31.02,76,65,3.68,KI,1682118436
537,shambu,9.5667,37.1,14.45,48,99,0.68,ET,1682118436
538,sovetsk,55.0839,21.8785,7.0,76,54,2.05,RU,1682118436
539,langres,47.8333,5.3333,6.22,92,100,3.6,FR,1682118437
540,freetown,8.484,-13.2299,26.95,81,100,4.17,SL,1682118438
541,mynamaki,60.7446,22.0243,3.39,89,17,1.9,FI,1682118438
542,strpce,42.2394,21.0272,7.69,84,33,0.82,XK,1682118440
543,iskushuban,10.2837,50.23,25.23,76,87,4.06,SO,1682118440
544,nikolayevsk-on-amure,53.1406,140.73,0.38,92,100,3.41,RU,1682118440
545,chitapur,17.1167,77.0833,30.11,37,69,2.27,IN,1682118441
546,higuera de zaragoza,25.95,-109.2833,29.96,36,12,6.56,MX,1682118441
547,villa gesell,-37.2639,-56.973,14.47,59,100,4.61,AR,1682118441
548,ar ruways,24.1103,52.7306,25.1,55,81,2.57,AE,1682118441
549,greenville,35.6127,-77.3663,27.02,34,0,6.17,US,1682118172
550,carnarvon,-24.8667,113.6333,21.89,39,0,4.5,AU,1682118442
551,zvishavane,-20.3267,30.0665,17.47,44,53,0.44,ZW,1682118442
552,karangampel,-6.4622,108.4519,26.22,81,84,2.99,ID,1682118443
553,gorontalo,0.5412,123.0595,25.1,91,75,0.91,ID,1682118443
554,masaurhi buzurg,25.35,85.0333,23.94,37,71,1.8,IN,1682118443
555,chernyshevskiy,63.0128,112.4714,-11.03,93,86,0.21,RU,1682118444
556,manado,1.487,124.8455,26.43,89,20,1.03,ID,1682118444
557,shingu,33.7333,135.9833,15.69,40,40,2.49,JP,1682118445
558,chivilcoy,-34.8957,-60.0167,15.37,52,100,0.5,AR,1682118445
559,yuksekova,37.5736,44.2872,7.86,49,20,2.57,TR,1682118445
560,kete krachi,7.7939,-0.0498,28.79,69,97,4.51,GH,1682118445
561,lib,8.3122,167.3766,27.73,81,62,7.0,MH,1682118446
562,sao tome,0.3365,6.7273,26.97,78,99,0.66,ST,1682118446
563,sisimiut,66.9395,-53.6735,-0.77,79,100,2.62,GL,1682118446
564,twon-brass,4.3151,6.2418,27.08,77,26,1.35,NG,1682118447
565,bazarnyy karabulak,52.2683,46.4144,8.42,71,100,7.3,RU,1682118447
566,chyhyryn,49.0838,32.6555,7.65,91,100,5.31,UA,1682118448
567,el haouaria,37.05,11.0144,14.67,84,0,3.84,TN,1682118448
568,chok chai,14.7284,102.1652,29.89,77,1,2.07,TH,1682118449
569,ambon,-3.6954,128.1814,25.08,94,20,1.54,ID,1682118449
570,vallo della lucania,40.2297,15.2658,11.42,76,9,1.93,IT,1682118449
571,quepos,9.4236,-84.1652,28.04,73,98,1.1,CR,1682118449
572,pacocha,-17.5833,-71.3333,20.2,87,26,0.99,PE,1682118450
573,kollo,13.3043,2.339,31.53,7,80,2.13,NE,1682118450
574,ola,59.5833,151.2833,5.08,71,53,10.38,RU,1682118450
575,bamboo flat,11.7,92.7167,28.42,69,27,3.34,IN,1682118451
576,mount isa,-20.7333,139.5,22.87,35,0,5.14,AU,1682118451
577,trairi,-3.2778,-39.2689,25.56,84,61,3.5,BR,1682118228
578,ghadamis,30.1337,9.5007,21.76,47,91,6.17,LY,1682118452
579,katabu,-4.9333,122.5167,25.0,92,67,2.1,ID,1682118452
580,yarmouth,41.7057,-70.2286,10.64,71,0,3.6,US,1682118452
581,plettenberg bay,-34.0527,23.3716,13.14,69,99,2.16,ZA,1682118453
582,ouadda,8.0777,22.4007,24.19,64,98,1.39,CF,1682118453
583,serrinha,-11.6642,-39.0075,23.82,71,100,5.21,BR,1682118453
584,jinchang,38.4953,102.1739,3.84,82,89,2.09,CN,1682118454
585,i-n-salah,27.1935,2.4607,27.8,15,7,5.85,DZ,1682118454
586,xishan,27.6667,113.5,17.32,96,100,2.39,CN,1682118455
587,shenjiamen,29.9576,122.298,13.57,74,24,4.91,CN,1682118455
588,tsetserleg,47.475,101.4542,-5.91,34,87,1.41,MN,1682118455
589,ciudad bolivar,8.1222,-63.5497,30.37,57,100,4.65,VE,1682118456
590,fisterra,42.9049,-9.2629,10.97,81,35,6.99,ES,1682118456
